{
  "type": "FeatureCollection",
  "features": [
    {
      "type": "Feature",
      "id": "node/270357431",
      "properties": {
        "timestamp": "2008-06-14T20:42:54Z",
        "version": 1,
        "changeset": 163812,
        "amenity": "pharmacy",
        "name": "Farmácia Jardim Botânico",
        "id": "node/270357431"
      },
      "geometry": {
        "type": "Point",
        "coordinates": [
          -49.2377298,
          -25.4387527
        ]
      }
    },
    {
      "type": "Feature",
      "id": "node/564213954",
      "properties": {
        "timestamp": "2009-11-14T21:34:33Z",
        "version": 1,
        "changeset": 3117290,
        "amenity": "pharmacy",
        "dispensing": "no",
        "name": "Farmácias Minerva",
        "id": "node/564213954"
      },
      "geometry": {
        "type": "Point",
        "coordinates": [
          -49.2530347,
          -25.4269046
        ]
      }
    },
    {
      "type": "Feature",
      "id": "node/603015481",
      "properties": {
        "timestamp": "2010-01-02T10:49:03Z",
        "version": 1,
        "changeset": 3517096,
        "amenity": "pharmacy",
        "name": "Morifarma",
        "id": "node/603015481"
      },
      "geometry": {
        "type": "Point",
        "coordinates": [
          -49.2919475,
          -25.4214741
        ]
      }
    },
    {
      "type": "Feature",
      "id": "node/603015490",
      "properties": {
        "timestamp": "2010-01-02T10:49:03Z",
        "version": 1,
        "changeset": 3517096,
        "amenity": "pharmacy",
        "name": "Minerva",
        "id": "node/603015490"
      },
      "geometry": {
        "type": "Point",
        "coordinates": [
          -49.2915988,
          -25.42207
        ]
      }
    },
    {
      "type": "Feature",
      "id": "node/603015496",
      "properties": {
        "timestamp": "2010-01-02T10:49:03Z",
        "version": 1,
        "changeset": 3517096,
        "addr:street": "Manoel Ribas",
        "amenity": "pharmacy",
        "name": "Callfarma",
        "id": "node/603015496"
      },
      "geometry": {
        "type": "Point",
        "coordinates": [
          -49.2912716,
          -25.4223268
        ]
      }
    }
  ]
}
