{
  "type": "FeatureCollection",
  "features": [
    {
      "type": "Feature",
      "id": "node/530812715",
      "properties": {
        "timestamp": "2009-10-14T20:21:30Z",
        "version": 1,
        "changeset": 2849336,
        "amenity": "hospital",
        "name": "Hospital Barão de Lucena",
        "id": "node/530812715"
      },
      "geometry": {
        "type": "Point",
        "coordinates": [
          -34.939093,
          -8.0384523
        ]
      }
    },
    {
      "type": "Feature",
      "id": "node/560397914",
      "properties": {
        "timestamp": "2009-11-10T12:46:34Z",
        "version": 1,
        "changeset": 3081803,
        "amenity": "hospital",
        "name": "Real hospital Português",
        "id": "node/560397914"
      },
      "geometry": {
        "type": "Point",
        "coordinates": [
          -34.8980697,
          -8.0639855
        ]
      }
    },
    {
      "type": "Feature",
      "id": "node/560397921",
      "properties": {
        "timestamp": "2009-11-10T12:46:36Z",
        "version": 1,
        "changeset": 3081803,
        "amenity": "hospital",
        "name": "hospital HOPE",
        "id": "node/560397921"
      },
      "geometry": {
        "type": "Point",
        "coordinates": [
          -34.895984,
          -8.0667559
        ]
      }
    },
    {
      "type": "Feature",
      "id": "node/560397922",
      "properties": {
        "timestamp": "2009-11-10T12:46:36Z",
        "version": 1,
        "changeset": 3081803,
        "amenity": "hospital",
        "name": "Hospital Esperança",
        "id": "node/560397922"
      },
      "geometry": {
        "type": "Point",
        "coordinates": [
          -34.8950999,
          -8.0670278
        ]
      }
    },
    {
      "type": "Feature",
      "id": "node/560398645",
      "properties": {
        "timestamp": "2009-11-10T12:51:14Z",
        "version": 1,
        "changeset": 3081803,
        "amenity": "hospital",
        "name": "Hospital São Marcos",
        "id": "node/560398645"
      },
      "geometry": {
        "type": "Point",
        "coordinates": [
          -34.8996489,
          -8.0624983
        ]
      }
    },
    {
      "type": "Feature",
      "id": "node/560398649",
      "properties": {
        "timestamp": "2009-11-10T12:51:15Z",
        "version": 1,
        "changeset": 3081803,
        "amenity": "hospital",
        "name": "Hospital da UNIMED",
        "id": "node/560398649"
      },
      "geometry": {
        "type": "Point",
        "coordinates": [
          -34.8943789,
          -8.0674017
        ]
      }
    },
    {
      "type": "Feature",
      "id": "node/560398652",
      "properties": {
        "timestamp": "2009-11-10T12:51:15Z",
        "version": 1,
        "changeset": 3081803,
        "amenity": "hospital",
        "name": "Hospital Albert Sabin",
        "id": "node/560398652"
      },
      "geometry": {
        "type": "Point",
        "coordinates": [
          -34.8952287,
          -8.0660335
        ]
      }
    },
    {
      "type": "Feature",
      "id": "node/561522234",
      "properties": {
        "timestamp": "2009-11-12T22:04:04Z",
        "version": 1,
        "changeset": 3101816,
        "amenity": "hospital",
        "name": "Hospital Geral de Areias",
        "id": "node/561522234"
      },
      "geometry": {
        "type": "Point",
        "coordinates": [
          -34.9260029,
          -8.1000157
        ]
      }
    },
    {
      "type": "Feature",
      "id": "node/561522261",
      "properties": {
        "timestamp": "2009-11-12T22:04:09Z",
        "version": 1,
        "changeset": 3101816,
        "amenity": "hospital",
        "name": "Hospital Getúlio Vargas",
        "id": "node/561522261"
      },
      "geometry": {
        "type": "Point",
        "coordinates": [
          -34.9222693,
          -8.0515859
        ]
      }
    },
    {
      "type": "Feature",
      "id": "node/561522283",
      "properties": {
        "timestamp": "2009-11-12T22:04:12Z",
        "version": 1,
        "changeset": 3101816,
        "amenity": "hospital",
        "name": "Hospital Jaime da Fonte",
        "id": "node/561522283"
      },
      "geometry": {
        "type": "Point",
        "coordinates": [
          -34.9007258,
          -8.0511015
        ]
      }
    },
    {
      "type": "Feature",
      "id": "node/565781489",
      "properties": {
        "timestamp": "2009-11-17T01:02:01Z",
        "version": 1,
        "changeset": 3137945,
        "amenity": "hospital",
        "name": "memorial São José",
        "id": "node/565781489"
      },
      "geometry": {
        "type": "Point",
        "coordinates": [
          -34.8973294,
          -8.0597433
        ]
      }
    }
  ]
}
